[
  {
    "ID": 1,
    "Name": "Normale Jeans"
    "Datum" : "25/05/2019",
    "Lat": 50.941278,
    "Long": 6.958281,
    "Category": "Hose",
    "Preis": 19,
    "Farbe": "tuerkis",
    "Herkunftsland": "Deutschland",
    "Nachhaltigkeit": "ja",
    "Marke": "H&M"
  },
  {
    "ID": 2,
    "Name" : "winter Pulli"
    "Datum": "24/05/2019",
    "Lat": 50.912178,
    "Long": 6.960789,
    "Category": "Pullover",
    "Preis": 30,
    "Farbe": "blau",
    "Herkunftsland": "China",
    "Nachhaltigkeit": "ja",
    "Marke": "Takko"
  },
  {
    "ID": 3,
    "Name" : "Elegantes KLeid"
    "Datum": "30/04/2019",
    "Lat": 50.930592,
    "Long":  6.945431,
    "Category": "Kleid",
    "Preis": 200,
    "Farbe": "schwarz",
    "Herkunftsland": "Frankreich",
    "Nachhaltigkeit": "nein",
    "Marke": "Madelene"
  },
  {
    "ID": 5,
    "Name" : "hübscher Kinderrock"
    "Datum": "31/03/2019",
    "Lat": 50.942394,
    "Long": 6.980449,
    "Category": "Rock",
    "Preis": 20,
    "Farbe": "pink",
    "Herkunftsland": "Österreich",
    "Nachhaltigkeit": "ja",
    "Marke": "C&A"
  },
  {
    "ID": 6,
    "Name" : "Coole Lederjacke"
    "Datum": "20/04/2019",
    "Lat": 50.931858,
    "Long": 6.955544,
    "Category": "Jacke",
    "Preis": 6,
    "Farbe": "schwarz",
    "Herkunftsland": "China",
    "Nachhaltigkeit": "nein",
    "Marke": "H&M"
  },
  {
    "ID": 7,
    "Name": "Leoparden T-Shirt"
    "Datum": "26/03/2019",
    "Lat": 50.942499,
    "Long": 6.980949,
    "Category": "T-Shirt",
    "Preis": 15,
    "Farbe": "grau",
    "Herkunftsland": "Deutschland",
    "Nachhaltigkeit": "nein",
    "Marke": "Takko"
  }
]
